{
  "AW": {
    "lat": 12.5,
    "lng": -69.96666666,
    "name": "Aruba"
  },
  "AF": {
    "lat": 33,
    "lng": 65,
    "name": "Afghanistan"
  },
  "AO": {
    "lat": -12.5,
    "lng": 18.5,
    "name": "Angola"
  },
  "AI": {
    "lat": 18.25,
    "lng": -63.16666666,
    "name": "Anguilla"
  },
  "AX": {
    "lat": 60.116667,
    "lng": 19.9,
    "name": "Åland Islands"
  },
  "AL": {
    "lat": 41,
    "lng": 20,
    "name": "Albania"
  },
  "AD": {
    "lat": 42.5,
    "lng": 1.5,
    "name": "Andorra"
  },
  "AE": {
    "lat": 24,
    "lng": 54,
    "name": "United Arab Emirates"
  },
  "AR": {
    "lat": -34,
    "lng": -64,
    "name": "Argentina"
  },
  "AM": {
    "lat": 40,
    "lng": 45,
    "name": "Armenia"
  },
  "AS": {
    "lat": -14.33333333,
    "lng": -170,
    "name": "American Samoa"
  },
  "AQ": {
    "lat": -90,
    "lng": 0,
    "name": "Antarctica"
  },
  "TF": {
    "lat": -49.25,
    "lng": 69.167,
    "name": "French Southern and Antarctic Lands"
  },
  "AG": {
    "lat": 17.05,
    "lng": -61.8,
    "name": "Antigua and Barbuda"
  },
  "AU": {
    "lat": -27,
    "lng": 133,
    "name": "Australia"
  },
  "AT": {
    "lat": 47.33333333,
    "lng": 13.33333333,
    "name": "Austria"
  },
  "AZ": {
    "lat": 40.5,
    "lng": 47.5,
    "name": "Azerbaijan"
  },
  "BI": {
    "lat": -3.5,
    "lng": 30,
    "name": "Burundi"
  },
  "BE": {
    "lat": 50.83333333,
    "lng": 4,
    "name": "Belgium"
  },
  "BJ": {
    "lat": 9.5,
    "lng": 2.25,
    "name": "Benin"
  },
  "BF": {
    "lat": 13,
    "lng": -2,
    "name": "Burkina Faso"
  },
  "BD": {
    "lat": 24,
    "lng": 90,
    "name": "Bangladesh"
  },
  "BG": {
    "lat": 43,
    "lng": 25,
    "name": "Bulgaria"
  },
  "BH": {
    "lat": 26,
    "lng": 50.55,
    "name": "Bahrain"
  },
  "BS": {
    "lat": 24.25,
    "lng": -76,
    "name": "Bahamas"
  },
  "BA": {
    "lat": 44,
    "lng": 18,
    "name": "Bosnia and Herzegovina"
  },
  "BL": {
    "lat": 18.5,
    "lng": -63.41666666,
    "name": "Saint Barthélemy"
  },
  "SH": {
    "lat": -15.95,
    "lng": -5.72,
    "name": "Saint Helena, Ascension and Tristan da Cunha"
  },
  "BY": {
    "lat": 53,
    "lng": 28,
    "name": "Belarus"
  },
  "BZ": {
    "lat": 17.25,
    "lng": -88.75,
    "name": "Belize"
  },
  "BM": {
    "lat": 32.33333333,
    "lng": -64.75,
    "name": "Bermuda"
  },
  "BO": {
    "lat": -17,
    "lng": -65,
    "name": "Bolivia"
  },
  "BQ": {
    "lat": 12.18,
    "lng": -68.25,
    "name": "Caribbean Netherlands"
  },
  "BR": {
    "lat": -10,
    "lng": -55,
    "name": "Brazil"
  },
  "BB": {
    "lat": 13.16666666,
    "lng": -59.53333333,
    "name": "Barbados"
  },
  "BN": {
    "lat": 4.5,
    "lng": 114.66666666,
    "name": "Brunei"
  },
  "BT": {
    "lat": 27.5,
    "lng": 90.5,
    "name": "Bhutan"
  },
  "BV": {
    "lat": -54.43333333,
    "lng": 3.4,
    "name": "Bouvet Island"
  },
  "BW": {
    "lat": -22,
    "lng": 24,
    "name": "Botswana"
  },
  "CF": {
    "lat": 7,
    "lng": 21,
    "name": "Central African Republic"
  },
  "CA": {
    "lat": 60,
    "lng": -95,
    "name": "Canada"
  },
  "CC": {
    "lat": -12.5,
    "lng": 96.83333333,
    "name": "Cocos (Keeling) Islands"
  },
  "CH": {
    "lat": 47,
    "lng": 8,
    "name": "Switzerland"
  },
  "CL": {
    "lat": -30,
    "lng": -71,
    "name": "Chile"
  },
  "CN": {
    "lat": 35,
    "lng": 105,
    "name": "China"
  },
  "CI": {
    "lat": 8,
    "lng": -5,
    "name": "Ivory Coast"
  },
  "CM": {
    "lat": 6,
    "lng": 12,
    "name": "Cameroon"
  },
  "CD": {
    "lat": 0,
    "lng": 25,
    "name": "DR Congo"
  },
  "CG": {
    "lat": -1,
    "lng": 15,
    "name": "Republic of the Congo"
  },
  "CK": {
    "lat": -21.23333333,
    "lng": -159.76666666,
    "name": "Cook Islands"
  },
  "CO": {
    "lat": 4,
    "lng": -72,
    "name": "Colombia"
  },
  "KM": {
    "lat": -12.16666666,
    "lng": 44.25,
    "name": "Comoros"
  },
  "CV": {
    "lat": 16,
    "lng": -24,
    "name": "Cape Verde"
  },
  "CR": {
    "lat": 10,
    "lng": -84,
    "name": "Costa Rica"
  },
  "CU": {
    "lat": 21.5,
    "lng": -80,
    "name": "Cuba"
  },
  "CW": {
    "lat": 12.116667,
    "lng": -68.933333,
    "name": "Curaçao"
  },
  "CX": {
    "lat": -10.5,
    "lng": 105.66666666,
    "name": "Christmas Island"
  },
  "KY": {
    "lat": 19.5,
    "lng": -80.5,
    "name": "Cayman Islands"
  },
  "CY": {
    "lat": 35,
    "lng": 33,
    "name": "Cyprus"
  },
  "CZ": {
    "lat": 49.75,
    "lng": 15.5,
    "name": "Czechia"
  },
  "DE": {
    "lat": 51,
    "lng": 9,
    "name": "Germany"
  },
  "DJ": {
    "lat": 11.5,
    "lng": 43,
    "name": "Djibouti"
  },
  "DM": {
    "lat": 15.41666666,
    "lng": -61.33333333,
    "name": "Dominica"
  },
  "DK": {
    "lat": 56,
    "lng": 10,
    "name": "Denmark"
  },
  "DO": {
    "lat": 19,
    "lng": -70.66666666,
    "name": "Dominican Republic"
  },
  "DZ": {
    "lat": 28,
    "lng": 3,
    "name": "Algeria"
  },
  "EC": {
    "lat": -2,
    "lng": -77.5,
    "name": "Ecuador"
  },
  "EG": {
    "lat": 27,
    "lng": 30,
    "name": "Egypt"
  },
  "ER": {
    "lat": 15,
    "lng": 39,
    "name": "Eritrea"
  },
  "EH": {
    "lat": 24.5,
    "lng": -13,
    "name": "Western Sahara"
  },
  "ES": {
    "lat": 40,
    "lng": -4,
    "name": "Spain"
  },
  "EE": {
    "lat": 59,
    "lng": 26,
    "name": "Estonia"
  },
  "ET": {
    "lat": 8,
    "lng": 38,
    "name": "Ethiopia"
  },
  "FI": {
    "lat": 64,
    "lng": 26,
    "name": "Finland"
  },
  "FJ": {
    "lat": -18,
    "lng": 175,
    "name": "Fiji"
  },
  "FK": {
    "lat": -51.75,
    "lng": -59,
    "name": "Falkland Islands"
  },
  "FR": {
    "lat": 46,
    "lng": 2,
    "name": "France"
  },
  "FO": {
    "lat": 62,
    "lng": -7,
    "name": "Faroe Islands"
  },
  "FM": {
    "lat": 6.91666666,
    "lng": 158.25,
    "name": "Micronesia"
  },
  "GA": {
    "lat": -1,
    "lng": 11.75,
    "name": "Gabon"
  },
  "GB": {
    "lat": 54,
    "lng": -2,
    "name": "United Kingdom"
  },
  "GE": {
    "lat": 42,
    "lng": 43.5,
    "name": "Georgia"
  },
  "GG": {
    "lat": 49.46666666,
    "lng": -2.58333333,
    "name": "Guernsey"
  },
  "GH": {
    "lat": 8,
    "lng": -2,
    "name": "Ghana"
  },
  "GI": {
    "lat": 36.13333333,
    "lng": -5.35,
    "name": "Gibraltar"
  },
  "GN": {
    "lat": 11,
    "lng": -10,
    "name": "Guinea"
  },
  "GP": {
    "lat": 16.25,
    "lng": -61.583333,
    "name": "Guadeloupe"
  },
  "GM": {
    "lat": 13.46666666,
    "lng": -16.56666666,
    "name": "Gambia"
  },
  "GW": {
    "lat": 12,
    "lng": -15,
    "name": "Guinea-Bissau"
  },
  "GQ": {
    "lat": 2,
    "lng": 10,
    "name": "Equatorial Guinea"
  },
  "GR": {
    "lat": 39,
    "lng": 22,
    "name": "Greece"
  },
  "GD": {
    "lat": 12.11666666,
    "lng": -61.66666666,
    "name": "Grenada"
  },
  "GL": {
    "lat": 72,
    "lng": -40,
    "name": "Greenland"
  },
  "GT": {
    "lat": 15.5,
    "lng": -90.25,
    "name": "Guatemala"
  },
  "GF": {
    "lat": 4,
    "lng": -53,
    "name": "French Guiana"
  },
  "GU": {
    "lat": 13.46666666,
    "lng": 144.78333333,
    "name": "Guam"
  },
  "GY": {
    "lat": 5,
    "lng": -59,
    "name": "Guyana"
  },
  "HK": {
    "lat": 22.267,
    "lng": 114.188,
    "name": "Hong Kong"
  },
  "HM": {
    "lat": -53.1,
    "lng": 72.51666666,
    "name": "Heard Island and McDonald Islands"
  },
  "HN": {
    "lat": 15,
    "lng": -86.5,
    "name": "Honduras"
  },
  "HR": {
    "lat": 45.16666666,
    "lng": 15.5,
    "name": "Croatia"
  },
  "HT": {
    "lat": 19,
    "lng": -72.41666666,
    "name": "Haiti"
  },
  "HU": {
    "lat": 47,
    "lng": 20,
    "name": "Hungary"
  },
  "ID": {
    "lat": -5,
    "lng": 120,
    "name": "Indonesia"
  },
  "IM": {
    "lat": 54.25,
    "lng": -4.5,
    "name": "Isle of Man"
  },
  "IN": {
    "lat": 20,
    "lng": 77,
    "name": "India"
  },
  "IO": {
    "lat": -6,
    "lng": 71.5,
    "name": "British Indian Ocean Territory"
  },
  "IE": {
    "lat": 53,
    "lng": -8,
    "name": "Ireland"
  },
  "IR": {
    "lat": 32,
    "lng": 53,
    "name": "Iran"
  },
  "IQ": {
    "lat": 33,
    "lng": 44,
    "name": "Iraq"
  },
  "IS": {
    "lat": 65,
    "lng": -18,
    "name": "Iceland"
  },
  "IL": {
    "lat": 31.47,
    "lng": 35.13,
    "name": "Israel"
  },
  "IT": {
    "lat": 42.83333333,
    "lng": 12.83333333,
    "name": "Italy"
  },
  "JM": {
    "lat": 18.25,
    "lng": -77.5,
    "name": "Jamaica"
  },
  "JE": {
    "lat": 49.25,
    "lng": -2.16666666,
    "name": "Jersey"
  },
  "JO": {
    "lat": 31,
    "lng": 36,
    "name": "Jordan"
  },
  "JP": {
    "lat": 36,
    "lng": 138,
    "name": "Japan"
  },
  "KZ": {
    "lat": 48,
    "lng": 68,
    "name": "Kazakhstan"
  },
  "KE": {
    "lat": 1,
    "lng": 38,
    "name": "Kenya"
  },
  "KG": {
    "lat": 41,
    "lng": 75,
    "name": "Kyrgyzstan"
  },
  "KH": {
    "lat": 13,
    "lng": 105,
    "name": "Cambodia"
  },
  "KI": {
    "lat": 1.41666666,
    "lng": 173,
    "name": "Kiribati"
  },
  "KN": {
    "lat": 17.33333333,
    "lng": -62.75,
    "name": "Saint Kitts and Nevis"
  },
  "KR": {
    "lat": 37,
    "lng": 127.5,
    "name": "South Korea"
  },
  "XK": {
    "lat": 42.666667,
    "lng": 21.166667,
    "name": "Kosovo"
  },
  "KW": {
    "lat": 29.5,
    "lng": 45.75,
    "name": "Kuwait"
  },
  "LA": {
    "lat": 18,
    "lng": 105,
    "name": "Laos"
  },
  "LB": {
    "lat": 33.83333333,
    "lng": 35.83333333,
    "name": "Lebanon"
  },
  "LR": {
    "lat": 6.5,
    "lng": -9.5,
    "name": "Liberia"
  },
  "LY": {
    "lat": 25,
    "lng": 17,
    "name": "Libya"
  },
  "LC": {
    "lat": 13.88333333,
    "lng": -60.96666666,
    "name": "Saint Lucia"
  },
  "LI": {
    "lat": 47.26666666,
    "lng": 9.53333333,
    "name": "Liechtenstein"
  },
  "LK": {
    "lat": 7,
    "lng": 81,
    "name": "Sri Lanka"
  },
  "LS": {
    "lat": -29.5,
    "lng": 28.5,
    "name": "Lesotho"
  },
  "LT": {
    "lat": 56,
    "lng": 24,
    "name": "Lithuania"
  },
  "LU": {
    "lat": 49.75,
    "lng": 6.16666666,
    "name": "Luxembourg"
  },
  "LV": {
    "lat": 57,
    "lng": 25,
    "name": "Latvia"
  },
  "MO": {
    "lat": 22.16666666,
    "lng": 113.55,
    "name": "Macau"
  },
  "MF": {
    "lat": 18.08333333,
    "lng": -63.95,
    "name": "Saint Martin"
  },
  "MA": {
    "lat": 32,
    "lng": -5,
    "name": "Morocco"
  },
  "MC": {
    "lat": 43.73333333,
    "lng": 7.4,
    "name": "Monaco"
  },
  "MD": {
    "lat": 47,
    "lng": 29,
    "name": "Moldova"
  },
  "MG": {
    "lat": -20,
    "lng": 47,
    "name": "Madagascar"
  },
  "MV": {
    "lat": 3.25,
    "lng": 73,
    "name": "Maldives"
  },
  "MX": {
    "lat": 23,
    "lng": -102,
    "name": "Mexico"
  },
  "MH": {
    "lat": 9,
    "lng": 168,
    "name": "Marshall Islands"
  },
  "MK": {
    "lat": 41.83333333,
    "lng": 22,
    "name": "North Macedonia"
  },
  "ML": {
    "lat": 17,
    "lng": -4,
    "name": "Mali"
  },
  "MT": {
    "lat": 35.83333333,
    "lng": 14.58333333,
    "name": "Malta"
  },
  "MM": {
    "lat": 22,
    "lng": 98,
    "name": "Myanmar"
  },
  "ME": {
    "lat": 42.5,
    "lng": 19.3,
    "name": "Montenegro"
  },
  "MN": {
    "lat": 46,
    "lng": 105,
    "name": "Mongolia"
  },
  "MP": {
    "lat": 15.2,
    "lng": 145.75,
    "name": "Northern Mariana Islands"
  },
  "MZ": {
    "lat": -18.25,
    "lng": 35,
    "name": "Mozambique"
  },
  "MR": {
    "lat": 20,
    "lng": -12,
    "name": "Mauritania"
  },
  "MS": {
    "lat": 16.75,
    "lng": -62.2,
    "name": "Montserrat"
  },
  "MQ": {
    "lat": 14.666667,
    "lng": -61,
    "name": "Martinique"
  },
  "MU": {
    "lat": -20.28333333,
    "lng": 57.55,
    "name": "Mauritius"
  },
  "MW": {
    "lat": -13.5,
    "lng": 34,
    "name": "Malawi"
  },
  "MY": {
    "lat": 2.5,
    "lng": 112.5,
    "name": "Malaysia"
  },
  "YT": {
    "lat": -12.83333333,
    "lng": 45.16666666,
    "name": "Mayotte"
  },
  "NA": {
    "lat": -22,
    "lng": 17,
    "name": "Namibia"
  },
  "NC": {
    "lat": -21.5,
    "lng": 165.5,
    "name": "New Caledonia"
  },
  "NE": {
    "lat": 16,
    "lng": 8,
    "name": "Niger"
  },
  "NF": {
    "lat": -29.03333333,
    "lng": 167.95,
    "name": "Norfolk Island"
  },
  "NG": {
    "lat": 10,
    "lng": 8,
    "name": "Nigeria"
  },
  "NI": {
    "lat": 13,
    "lng": -85,
    "name": "Nicaragua"
  },
  "NU": {
    "lat": -19.03333333,
    "lng": -169.86666666,
    "name": "Niue"
  },
  "NL": {
    "lat": 52.5,
    "lng": 5.75,
    "name": "Netherlands"
  },
  "NO": {
    "lat": 62,
    "lng": 10,
    "name": "Norway"
  },
  "NP": {
    "lat": 28,
    "lng": 84,
    "name": "Nepal"
  },
  "NR": {
    "lat": -0.53333333,
    "lng": 166.91666666,
    "name": "Nauru"
  },
  "NZ": {
    "lat": -41,
    "lng": 174,
    "name": "New Zealand"
  },
  "OM": {
    "lat": 21,
    "lng": 57,
    "name": "Oman"
  },
  "PK": {
    "lat": 30,
    "lng": 70,
    "name": "Pakistan"
  },
  "PA": {
    "lat": 9,
    "lng": -80,
    "name": "Panama"
  },
  "PN": {
    "lat": -25.06666666,
    "lng": -130.1,
    "name": "Pitcairn Islands"
  },
  "PE": {
    "lat": -10,
    "lng": -76,
    "name": "Peru"
  },
  "PH": {
    "lat": 13,
    "lng": 122,
    "name": "Philippines"
  },
  "PW": {
    "lat": 7.5,
    "lng": 134.5,
    "name": "Palau"
  },
  "PG": {
    "lat": -6,
    "lng": 147,
    "name": "Papua New Guinea"
  },
  "PL": {
    "lat": 52,
    "lng": 20,
    "name": "Poland"
  },
  "PR": {
    "lat": 18.25,
    "lng": -66.5,
    "name": "Puerto Rico"
  },
  "KP": {
    "lat": 40,
    "lng": 127,
    "name": "North Korea"
  },
  "PT": {
    "lat": 39.5,
    "lng": -8,
    "name": "Portugal"
  },
  "PY": {
    "lat": -23,
    "lng": -58,
    "name": "Paraguay"
  },
  "PS": {
    "lat": 31.9,
    "lng": 35.2,
    "name": "Palestine"
  },
  "PF": {
    "lat": -15,
    "lng": -140,
    "name": "French Polynesia"
  },
  "QA": {
    "lat": 25.5,
    "lng": 51.25,
    "name": "Qatar"
  },
  "RE": {
    "lat": -21.15,
    "lng": 55.5,
    "name": "Réunion"
  },
  "RO": {
    "lat": 46,
    "lng": 25,
    "name": "Romania"
  },
  "RU": {
    "lat": 60,
    "lng": 100,
    "name": "Russia"
  },
  "RW": {
    "lat": -2,
    "lng": 30,
    "name": "Rwanda"
  },
  "SA": {
    "lat": 25,
    "lng": 45,
    "name": "Saudi Arabia"
  },
  "SD": {
    "lat": 15,
    "lng": 30,
    "name": "Sudan"
  },
  "SN": {
    "lat": 14,
    "lng": -14,
    "name": "Senegal"
  },
  "SG": {
    "lat": 1.36666666,
    "lng": 103.8,
    "name": "Singapore"
  },
  "GS": {
    "lat": -54.5,
    "lng": -37,
    "name": "South Georgia"
  },
  "SJ": {
    "lat": 78,
    "lng": 20,
    "name": "Svalbard and Jan Mayen"
  },
  "SB": {
    "lat": -8,
    "lng": 159,
    "name": "Solomon Islands"
  },
  "SL": {
    "lat": 8.5,
    "lng": -11.5,
    "name": "Sierra Leone"
  },
  "SV": {
    "lat": 13.83333333,
    "lng": -88.91666666,
    "name": "El Salvador"
  },
  "SM": {
    "lat": 43.76666666,
    "lng": 12.41666666,
    "name": "San Marino"
  },
  "SO": {
    "lat": 10,
    "lng": 49,
    "name": "Somalia"
  },
  "PM": {
    "lat": 46.83333333,
    "lng": -56.33333333,
    "name": "Saint Pierre and Miquelon"
  },
  "RS": {
    "lat": 44,
    "lng": 21,
    "name": "Serbia"
  },
  "SS": {
    "lat": 7,
    "lng": 30,
    "name": "South Sudan"
  },
  "ST": {
    "lat": 1,
    "lng": 7,
    "name": "São Tomé and Príncipe"
  },
  "SR": {
    "lat": 4,
    "lng": -56,
    "name": "Suriname"
  },
  "SK": {
    "lat": 48.66666666,
    "lng": 19.5,
    "name": "Slovakia"
  },
  "SI": {
    "lat": 46.11666666,
    "lng": 14.81666666,
    "name": "Slovenia"
  },
  "SE": {
    "lat": 62,
    "lng": 15,
    "name": "Sweden"
  },
  "SZ": {
    "lat": -26.5,
    "lng": 31.5,
    "name": "Eswatini"
  },
  "SX": {
    "lat": 18.033333,
    "lng": -63.05,
    "name": "Sint Maarten"
  },
  "SC": {
    "lat": -4.58333333,
    "lng": 55.66666666,
    "name": "Seychelles"
  },
  "SY": {
    "lat": 35,
    "lng": 38,
    "name": "Syria"
  },
  "TC": {
    "lat": 21.75,
    "lng": -71.58333333,
    "name": "Turks and Caicos Islands"
  },
  "TD": {
    "lat": 15,
    "lng": 19,
    "name": "Chad"
  },
  "TG": {
    "lat": 8,
    "lng": 1.16666666,
    "name": "Togo"
  },
  "TH": {
    "lat": 15,
    "lng": 100,
    "name": "Thailand"
  },
  "TJ": {
    "lat": 39,
    "lng": 71,
    "name": "Tajikistan"
  },
  "TK": {
    "lat": -9,
    "lng": -172,
    "name": "Tokelau"
  },
  "TM": {
    "lat": 40,
    "lng": 60,
    "name": "Turkmenistan"
  },
  "TL": {
    "lat": -8.83333333,
    "lng": 125.91666666,
    "name": "Timor-Leste"
  },
  "TO": {
    "lat": -20,
    "lng": -175,
    "name": "Tonga"
  },
  "TT": {
    "lat": 11,
    "lng": -61,
    "name": "Trinidad and Tobago"
  },
  "TN": {
    "lat": 34,
    "lng": 9,
    "name": "Tunisia"
  },
  "TR": {
    "lat": 39,
    "lng": 35,
    "name": "Türkiye"
  },
  "TV": {
    "lat": -8,
    "lng": 178,
    "name": "Tuvalu"
  },
  "TW": {
    "lat": 23.5,
    "lng": 121,
    "name": "Taiwan"
  },
  "TZ": {
    "lat": -6,
    "lng": 35,
    "name": "Tanzania"
  },
  "UG": {
    "lat": 1,
    "lng": 32,
    "name": "Uganda"
  },
  "UA": {
    "lat": 49,
    "lng": 32,
    "name": "Ukraine"
  },
  "UM": {
    "lat": 19.3,
    "lng": 166.633333,
    "name": "United States Minor Outlying Islands"
  },
  "UY": {
    "lat": -33,
    "lng": -56,
    "name": "Uruguay"
  },
  "US": {
    "lat": 38,
    "lng": -97,
    "name": "United States"
  },
  "UZ": {
    "lat": 41,
    "lng": 64,
    "name": "Uzbekistan"
  },
  "VA": {
    "lat": 41.9,
    "lng": 12.45,
    "name": "Vatican City"
  },
  "VC": {
    "lat": 13.25,
    "lng": -61.2,
    "name": "Saint Vincent and the Grenadines"
  },
  "VE": {
    "lat": 8,
    "lng": -66,
    "name": "Venezuela"
  },
  "VG": {
    "lat": 18.431383,
    "lng": -64.62305,
    "name": "British Virgin Islands"
  },
  "VI": {
    "lat": 18.35,
    "lng": -64.933333,
    "name": "United States Virgin Islands"
  },
  "VN": {
    "lat": 16.16666666,
    "lng": 107.83333333,
    "name": "Vietnam"
  },
  "VU": {
    "lat": -16,
    "lng": 167,
    "name": "Vanuatu"
  },
  "WF": {
    "lat": -13.3,
    "lng": -176.2,
    "name": "Wallis and Futuna"
  },
  "WS": {
    "lat": -13.58333333,
    "lng": -172.33333333,
    "name": "Samoa"
  },
  "YE": {
    "lat": 15,
    "lng": 48,
    "name": "Yemen"
  },
  "ZA": {
    "lat": -29,
    "lng": 24,
    "name": "South Africa"
  },
  "ZM": {
    "lat": -15,
    "lng": 30,
    "name": "Zambia"
  },
  "ZW": {
    "lat": -20,
    "lng": 30,
    "name": "Zimbabwe"
  }
}
